City_ID,City,Lat,Lng,Max Temp,Humidity,Cloudness,Wind speed,Country,Date
0,east london,-33.0153,27.9116,63.77,53,2,5.44,ZA,1623271182
1,upernavik,72.7868,-56.1549,36.28,87,100,2.51,GL,1623271191
2,mutata,7.2441,-76.4356,77.92,86,99,3.04,CO,1623271377
3,cetraro,39.5166,15.9416,67.24,88,85,3.04,IT,1623271377
4,kaitangata,-46.2817,169.8464,55.92,75,100,7.76,NZ,1623271208
5,cabo san lucas,22.8909,-109.9124,102.51,40,1,9.22,MX,1623271004
6,hobart,-42.8794,147.3294,51.66,81,75,1.01,AU,1623271199
7,wanning,18.8003,110.3967,78.85,86,78,2.39,CN,1623271303
8,hermanus,-34.4187,19.2345,60.8,80,0,4.79,ZA,1623271199
9,thompson,55.7435,-97.8558,55.56,67,75,9.22,CA,1623271192
10,san patricio,28.017,-97.5169,91.81,60,50,16.35,US,1623271200
11,ushuaia,-54.8,-68.3,44.26,53,40,14.97,AR,1623271194
12,albany,42.6001,-73.9662,88.09,81,88,4.63,US,1623271196
13,fairhope,30.523,-87.9033,89.06,66,75,9.22,US,1623271378
14,japura,-0.3167,102.35,72.72,97,31,1.28,ID,1623271378
15,butaritari,3.0707,172.7902,83.59,70,85,18.59,KI,1623271221
16,mataura,-46.1927,168.8643,49.48,89,92,1.86,NZ,1623271183
17,rikitea,-23.1203,-134.9692,72.57,64,99,10.09,PF,1623271181
18,puerto ayora,-0.7393,-90.3518,82.36,84,68,5.99,EC,1623271185
19,manzanillo,20.3433,-77.1167,84.47,66,99,5.68,CU,1623271379
20,punta arenas,-53.15,-70.9167,42.91,75,75,12.01,CL,1623271184
21,henties bay,-22.116,14.2845,55.85,82,0,6.89,NA,1623271379
22,los llanos de aridane,28.6585,-17.9182,69.55,73,0,14.16,ES,1623271271
23,golden,39.7555,-105.2211,92.23,16,20,3.0,US,1623271379
24,novobirilyussy,56.9514,90.6661,36.14,79,7,1.74,RU,1623271380
25,busselton,-33.65,115.3333,65.08,91,71,23.64,AU,1623271193
26,cherskiy,68.75,161.3,38.97,73,100,2.51,RU,1623271213
27,provideniya,64.3833,-173.3,37.51,100,90,8.95,RU,1623271198
28,sao joao da barra,-21.6403,-41.0511,73.49,82,20,8.16,BR,1623271248
29,jamestown,42.097,-79.2353,82.04,65,1,7.0,US,1623271076
30,taksimo,56.3444,114.8794,52.88,67,98,1.01,RU,1623271380
31,samarai,-10.6167,150.6667,79.45,82,57,6.26,PG,1623271380
32,puerto escondido,15.85,-97.0667,90.43,58,75,8.05,MX,1623271269
33,avera,33.194,-82.5271,91.45,45,81,9.06,US,1623271290
34,tiksi,71.6872,128.8694,38.08,67,17,5.23,RU,1623271245
35,acari,-15.4311,-74.6158,72.09,58,90,7.99,PE,1623271381
36,carnarvon,-24.8667,113.6333,59.07,11,86,10.36,AU,1623271182
37,castro,-24.7911,-50.0119,58.41,94,27,3.4,BR,1623271198
38,hilo,19.7297,-155.09,79.79,77,90,9.22,US,1623271085
39,faanui,-16.4833,-151.75,80.6,78,74,12.82,PF,1623271227
40,ust-ilimsk,58.0006,102.6619,44.92,88,100,5.19,RU,1623271382
41,lebu,-37.6167,-73.65,54.3,85,100,13.62,CL,1623271226
42,kodiak,57.79,-152.4072,49.51,87,90,11.5,US,1623271189
43,georgetown,5.4112,100.3354,81.9,88,20,3.0,MY,1623271223
44,karratha,-20.7377,116.8463,72.07,39,85,10.04,AU,1623271180
45,sundsvall,62.3913,17.3063,60.76,77,0,2.86,SE,1623271382
46,san jose,37.3394,-121.895,72.01,41,20,4.0,US,1623271176
47,arraial do cabo,-22.9661,-42.0278,75.06,83,40,11.5,BR,1623271184
48,te anau,-45.4167,167.7167,46.2,92,99,0.34,NZ,1623271383
49,barrow,71.2906,-156.7887,32.02,86,90,10.36,US,1623271216
50,sabha,27.0377,14.4283,92.57,12,30,11.5,LY,1623271383
51,saldanha,-33.0117,17.9442,53.65,83,0,10.16,ZA,1623271283
52,san cristobal,7.7669,-72.225,78.98,55,88,4.32,VE,1623271053
53,chardara,41.2547,67.9692,76.95,26,0,5.79,KZ,1623271383
54,rocha,-34.4833,-54.3333,59.92,94,100,10.33,UY,1623271384
55,biscarrosse,44.3945,-1.1672,68.32,72,0,7.18,FR,1623271384
56,beihai,21.4833,109.1,82.51,80,100,7.38,CN,1623271384
57,porto novo,6.4965,2.6036,76.82,77,99,6.85,BJ,1623271385
58,arki,31.15,76.9667,80.76,31,45,4.59,IN,1623271385
59,tual,-5.6667,132.75,81.16,79,90,17.29,ID,1623271385
60,ribeira grande,38.5167,-28.7,66.6,100,75,12.66,PT,1623271218
61,tuktoyaktuk,69.4541,-133.0374,59.0,38,75,12.66,CA,1623271203
62,salalah,17.0151,54.0924,82.49,89,75,4.61,OM,1623271091
63,bibiani,6.4635,-2.3194,73.2,98,82,2.89,GH,1623271386
64,nouakchott,18.0858,-15.9785,71.53,88,0,11.32,MR,1623271026
65,port elizabeth,-33.918,25.5701,53.89,100,40,5.75,ZA,1623271218
66,natitingou,10.3042,1.3796,78.15,73,99,4.18,BJ,1623271386
67,almaznyy,48.0448,40.045,60.94,95,21,8.03,RU,1623271386
68,marfino,55.7028,37.3822,62.55,82,75,7.83,RU,1623271387
69,kapaa,22.0752,-159.319,82.38,72,20,5.01,US,1623271182
70,norman wells,65.282,-126.8329,73.44,28,20,13.8,CA,1623271193
71,pandan,14.0453,124.1694,79.23,82,100,3.53,PH,1623271304
72,coahuayana,18.7333,-103.6833,98.08,46,92,8.66,MX,1623271301
73,vaini,-21.2,-175.2,71.76,73,20,9.22,TO,1623271208
74,sao filipe,14.8961,-24.4956,75.45,76,68,9.35,CV,1623271187
75,mar del plata,-38.0023,-57.5575,64.0,93,90,3.0,AR,1623271183
76,bandarbeyla,9.4942,50.8122,79.14,82,36,30.62,SO,1623271387
77,iqaluit,63.7506,-68.5145,42.53,70,75,13.0,CA,1623271260
78,cape town,-33.9258,18.4232,59.11,99,0,3.49,ZA,1623271084
79,baykit,61.67,96.37,40.03,84,92,7.05,RU,1623271388
80,husavik,66.0449,-17.3389,46.31,88,100,4.63,IS,1623271289
81,marawi,7.9986,124.2928,65.64,94,100,1.61,PH,1623271388
82,kaitong,44.8135,123.15,70.45,54,100,17.83,CN,1623271388
83,codrington,-38.2667,141.9667,55.83,78,100,22.44,AU,1623271320
84,vaitape,-16.5167,-151.75,80.64,78,74,12.73,PF,1623271389
85,nouadhibou,20.931,-17.0347,71.58,73,42,14.97,MR,1623271389
86,new norfolk,-42.7826,147.0587,51.3,76,100,5.01,AU,1623271211
87,severo-kurilsk,50.6789,156.125,46.04,88,74,7.85,RU,1623271236
88,zuwarah,32.9312,12.082,70.32,68,0,10.67,LY,1623271389
89,san quintin,30.4833,-115.95,68.4,63,100,19.66,MX,1623271196
90,khatanga,71.9667,102.5,44.35,56,50,4.74,RU,1623271205
91,port moresby,-9.4431,147.1797,72.82,100,90,4.61,PG,1623271390
92,cabedelo,-6.9811,-34.8339,79.47,79,32,12.53,BR,1623271390
93,adamas,36.7333,24.4333,67.42,82,100,11.61,GR,1623271390
94,yellowknife,62.456,-114.3525,59.52,55,75,16.11,CA,1623271149
95,bossangoa,6.4926,17.4552,71.35,93,86,4.23,CF,1623271391
96,nikolskoye,59.7035,30.7861,64.29,71,79,3.38,RU,1623271250
97,flinders,-34.5833,150.8552,41.2,85,50,1.01,AU,1623271391
98,bac lieu,9.285,105.7244,80.28,85,97,7.16,VN,1623271391
99,rawson,-43.3002,-65.1023,57.76,48,67,14.54,AR,1623271319
100,reisterstown,39.4696,-76.8294,85.78,74,100,3.0,US,1623271392
101,arrecife,28.963,-13.5477,80.58,36,0,16.11,ES,1623271392
102,touros,-5.1989,-35.4608,79.7,75,69,15.17,BR,1623271392
103,esperance,-33.8667,121.9,51.64,68,82,25.05,AU,1623271234
104,evanston,42.0411,-87.6901,91.22,64,20,1.01,US,1623271298
105,blanquefort,44.9125,-0.6366,68.31,62,0,6.42,FR,1623271393
106,bredasdorp,-34.5322,20.0403,60.28,94,0,2.33,ZA,1623271194
107,airai,-8.9266,125.4092,56.97,94,71,2.86,TL,1623271192
108,bodden town,19.2833,-81.25,87.01,56,20,3.0,KY,1623271393
109,mahebourg,-20.4081,57.7,73.26,83,75,11.5,MU,1623271298
110,kahului,20.8947,-156.47,83.14,67,40,25.32,US,1623271253
111,qaanaaq,77.484,-69.3632,40.57,73,0,8.14,GL,1623271190
112,quartucciu,39.2519,9.1794,73.27,64,0,7.52,IT,1623271291
113,vao,-22.6667,167.4833,69.73,67,17,8.19,NC,1623271310
114,trairi,-3.2778,-39.2689,78.58,83,32,6.44,BR,1623270987
115,kungurtug,50.5994,97.5228,48.42,57,79,0.58,RU,1623271394
116,saint-philippe,-21.3585,55.7679,71.15,80,68,12.68,RE,1623271268
117,luderitz,-26.6481,15.1594,59.63,74,0,5.91,NA,1623271208
118,jutai,-5.1833,-68.9,84.13,69,84,1.79,BR,1623271394
119,medea,36.2642,2.7539,63.05,41,0,3.98,DZ,1623271394
120,saint-georges,12.0564,-61.7485,83.88,79,40,23.02,GD,1623271314
121,ponta do sol,32.6667,-17.1,71.71,69,1,2.75,PT,1623271228
122,stabat,3.761,98.4513,77.2,97,93,3.76,ID,1623271395
123,ahipara,-35.1667,173.1667,59.81,91,93,5.39,NZ,1623271296
124,atuona,-9.8,-139.0333,79.75,77,20,15.5,PF,1623271187
125,mancio lima,-7.6142,-72.8958,87.87,66,75,2.35,BR,1623271395
126,avarua,-21.2078,-159.775,80.65,83,40,6.91,CK,1623271247
127,oga,46.4631,10.347,54.68,96,98,4.34,IT,1623271396
128,sur,22.5667,59.5289,87.53,70,5,11.68,OM,1623271311
129,lorengau,-2.0226,147.2712,81.48,80,88,7.34,PG,1623271186
130,atambua,-9.1061,124.8925,69.55,91,44,4.41,ID,1623271396
131,saskylakh,71.9167,114.0833,43.74,51,12,10.51,RU,1623271277
132,mirnyy,62.5353,113.9611,47.3,62,8,10.98,RU,1623271396
133,calgary,51.0501,-114.0853,56.79,87,90,5.01,CA,1623271362
134,chuy,-33.6971,-53.4616,61.07,91,100,12.48,UY,1623271195
135,sola,-13.8833,167.55,79.84,74,81,19.71,VU,1623271397
136,waingapu,-9.6567,120.2641,73.85,85,74,7.58,ID,1623271397
137,bethel,41.3712,-73.414,91.04,64,40,8.05,US,1623271197
138,port hardy,50.6996,-127.4199,53.78,82,75,4.61,CA,1623271397
139,dosso,13.049,3.1937,93.18,35,39,21.0,NE,1623271398
140,dolores,-36.3132,-57.6792,58.12,90,100,6.98,AR,1623271398
141,villacarrillo,38.1156,-3.0848,76.33,23,9,2.77,ES,1623271398
142,mayo,38.8876,-76.5119,89.71,76,20,6.4,US,1623271399
143,vila do maio,15.1333,-23.2167,77.79,88,41,12.33,CV,1623271314
144,faya,18.3851,42.4509,75.31,29,91,2.59,SA,1623271399
145,cidreira,-30.1811,-50.2056,63.27,94,64,17.58,BR,1623271197
146,guerrero negro,27.9769,-114.0611,71.8,60,59,18.86,MX,1623271293
147,saint george,37.1041,-113.5841,97.27,12,1,5.01,US,1623271199
148,skjervoy,70.0311,20.9714,49.19,82,100,1.61,NO,1623271399
149,tirlyanskiy,54.2109,58.5806,47.68,97,83,1.59,RU,1623271400
150,pisco,-13.7,-76.2167,69.03,77,82,9.22,PE,1623271194
151,naryan-mar,67.6713,53.087,49.19,73,100,4.72,RU,1623271400
152,imuris,30.7833,-110.8667,95.86,10,98,14.52,MX,1623271400
153,namibe,-15.1961,12.1522,68.88,64,6,9.17,AO,1623271202
154,goure,13.9835,10.2704,90.63,19,72,5.68,NE,1623271401
155,smoky lake,54.1169,-112.4686,65.48,59,96,11.39,CA,1623271401
156,lanzhou,36.0564,103.7922,56.48,41,1,0.4,CN,1623271401
157,sistranda,63.7256,8.834,57.9,77,98,7.36,NO,1623271300
158,coquimbo,-29.9533,-71.3436,56.93,94,75,4.54,CL,1623271235
159,benguela,-12.5763,13.4055,74.5,64,0,1.66,AO,1623271402
160,ngong,-1.3618,36.6566,59.77,83,82,6.98,KE,1623271402
161,richards bay,-28.783,32.0377,63.57,90,73,6.29,ZA,1623271310
162,nanyuki,0.0167,37.0728,57.54,81,18,11.05,KE,1623271402
163,arman,59.7,150.1667,42.49,85,99,1.39,RU,1623271403
164,hasaki,35.7333,140.8333,66.29,80,0,7.14,JP,1623271152
165,srednekolymsk,67.45,153.6833,41.34,68,100,20.36,RU,1623271302
166,bluff,-46.6,168.3333,49.8,88,98,13.53,NZ,1623271188
167,siparia,10.1333,-61.5,84.81,82,99,1.99,TT,1623271403
168,abu zabad,12.35,29.25,78.42,57,98,9.78,SD,1623271403
169,pangnirtung,66.1451,-65.7125,37.4,87,75,16.11,CA,1623271215
170,penzance,50.1186,-5.5371,60.01,96,99,11.21,GB,1623271404
171,mumford,5.2618,-0.759,81.03,80,69,9.35,GH,1623271404
172,yar-sale,66.8333,70.8333,44.17,68,68,6.67,RU,1623271256
173,mugan,35.9404,101.3842,52.74,64,2,4.94,CN,1623271404
174,lavrentiya,65.5833,-171.0,34.32,98,100,4.45,RU,1623271200
175,morondava,-20.2833,44.2833,68.76,64,18,12.46,MG,1623271405
176,katsuura,35.1333,140.3,69.91,86,1,7.99,JP,1623271277
177,charcas,23.1333,-101.1167,80.47,25,4,14.83,MX,1623271405
178,tucuman,-26.8241,-65.2226,69.8,60,20,2.57,AR,1623271214
179,mogadishu,2.0371,45.3438,78.73,82,48,16.51,SO,1623271083
180,kamenka,51.3223,42.7678,58.06,91,38,6.17,RU,1623271204
181,kazanka,47.8462,32.8218,62.91,87,48,6.42,UA,1623271405
182,ananas,19.2466,-71.9557,78.87,70,72,10.18,HT,1623271406
183,pavlodar,52.3,76.95,49.8,53,0,10.58,KZ,1623271406
184,lebanon,36.2081,-86.2911,81.97,81,75,9.22,US,1623271406
185,omsukchan,62.5333,155.8,50.43,61,100,16.15,RU,1623271407
186,qui nhon,13.7667,109.2333,77.05,87,100,7.67,VN,1623271407
187,aswan,24.0934,32.907,91.31,10,0,12.35,EG,1623271198
188,victoria,22.2855,114.1577,82.38,93,43,7.0,HK,1623271224
189,talara,-4.5772,-81.2719,71.28,79,40,18.66,PE,1623271287
190,souillac,-20.5167,57.5167,73.36,83,75,14.45,MU,1623271311
191,iskateley,67.6803,53.1512,49.17,73,100,4.7,RU,1623271407
192,upington,-28.4478,21.2561,57.04,60,0,10.96,ZA,1623271408
193,deputatskiy,69.3,139.9,44.08,57,100,4.5,RU,1623271408
194,port alfred,-33.5906,26.891,64.0,61,0,5.61,ZA,1623271180
195,ossora,59.2353,163.0719,51.37,56,100,6.85,RU,1623271408
196,san carlos,9.6612,-68.5827,83.98,69,100,1.99,VE,1623271409
197,hualmay,-11.0964,-77.6139,68.0,75,60,12.28,PE,1623271254
198,leningradskiy,69.3833,178.4167,33.28,85,99,2.8,RU,1623271214
199,hami,42.8,93.45,75.33,33,73,6.46,CN,1623271409
200,itarema,-2.9248,-39.9167,78.84,84,86,11.16,BR,1623271409
201,ostersund,63.1792,14.6357,60.62,67,40,10.36,SE,1623271410
202,comodoro rivadavia,-45.8667,-67.5,57.06,54,40,11.5,AR,1623271287
203,maltahohe,-24.8333,16.9833,48.74,27,0,1.05,NA,1623271410
204,chebenki,51.9337,55.7077,58.75,89,84,5.57,RU,1623271410
205,finschhafen,-6.6024,147.8681,78.46,84,100,7.36,PG,1623271410
206,gravelbourg,49.8834,-106.5512,64.67,60,59,13.02,CA,1623271411
207,korla,41.7597,86.1469,72.75,35,5,11.41,CN,1623271411
208,maragogi,-9.0122,-35.2225,75.81,82,14,7.02,BR,1623271411
209,kirakira,-10.4544,161.9205,81.75,78,90,8.12,SB,1623271297
210,ilulissat,69.2167,-51.1,44.62,70,6,9.22,GL,1623271207
211,oranjemund,-28.55,16.4333,58.78,77,0,6.69,NA,1623271299
212,asau,46.4333,26.4,63.52,92,100,2.82,RO,1623271216
213,shetpe,44.1667,52.1167,69.73,47,12,10.78,KZ,1623271412
214,lazaro cardenas,17.9583,-102.2,88.99,62,21,11.52,MX,1623271412
215,oshnaviyeh,37.0397,45.0983,64.65,37,0,7.99,IR,1623271412
216,andenes,69.3143,16.1194,55.38,71,20,12.66,NO,1623271413
217,padang,-0.9492,100.3543,76.06,86,58,3.33,ID,1623271201
218,olafsvik,64.8945,-23.7142,46.45,92,100,10.02,IS,1623271251
219,shingu,33.7333,135.9833,66.9,70,2,5.14,JP,1623271201
220,diplo,24.4667,69.584,84.38,70,0,17.63,PK,1623271413
221,vung tau,10.346,107.0843,80.89,84,100,12.26,VN,1623271413
222,mareeba,-17.0,145.4333,63.32,93,56,2.59,AU,1623271413
223,fortuna,40.5982,-124.1573,67.19,60,1,5.01,US,1623271230
224,de aar,-30.6497,24.0123,50.72,58,5,7.43,ZA,1623271414
225,russell,32.3502,-85.1999,91.15,56,1,8.86,US,1623271414
226,lokosovo,61.1333,74.8167,39.16,69,10,5.26,RU,1623271414
227,port blair,11.6667,92.75,82.92,80,100,17.92,IN,1623271299
228,lagoa,39.05,-27.9833,66.09,91,54,16.98,PT,1623271213
229,kholm,59.2667,32.85,55.56,59,100,3.98,RU,1623271415
230,ucluelet,48.9329,-125.5528,62.1,78,84,1.99,CA,1623271235
231,pangai,-19.8,-174.35,75.31,60,40,2.3,TO,1623271199
232,tasiilaq,65.6145,-37.6368,41.16,88,100,1.52,GL,1623271179
233,kununurra,-15.7667,128.7333,64.38,39,82,6.91,AU,1623271415
234,nizhniy tsasuchey,50.5167,115.1333,54.66,77,100,6.02,RU,1623271416
235,portland,45.5234,-122.6762,71.56,42,75,1.01,US,1623271101
236,la palma,33.8464,-118.0467,88.74,47,20,11.01,US,1623271416
237,bambous virieux,-20.3428,57.7575,73.22,83,75,16.02,MU,1623271186
238,hithadhoo,-0.6,73.0833,82.42,72,2,8.86,MV,1623271196
239,eureka,40.8021,-124.1637,65.68,66,1,5.99,US,1623271246
240,lompoc,34.6391,-120.4579,78.39,62,1,17.27,US,1623271090
241,sudzha,51.1976,35.2726,59.58,88,92,1.59,RU,1623271417
242,aklavik,68.2191,-135.0107,70.63,34,75,8.05,CA,1623271227
243,makakilo city,21.3469,-158.0858,82.72,55,20,12.66,US,1623271417
244,mago,53.2514,140.1822,71.26,64,31,3.27,RU,1623271265
245,halifax,44.6453,-63.5724,80.35,61,75,2.3,CA,1623271386
246,papar,5.7333,115.9333,77.0,76,76,4.12,MY,1623271417
247,antalaha,-14.9003,50.2788,67.57,77,1,7.34,MG,1623271418
248,peniche,39.3558,-9.3811,71.08,86,0,12.55,PT,1623271418
249,chancay,-11.5714,-77.2672,68.56,79,96,10.22,PE,1623271418
250,nanortalik,60.1432,-45.2371,39.74,83,31,3.98,GL,1623271196
251,paamiut,61.994,-49.6678,36.73,94,99,9.71,GL,1623271220
252,opuwo,-18.0607,13.84,62.15,31,0,3.06,NA,1623271419
253,maniitsoq,65.4167,-52.9,39.16,90,45,17.94,GL,1623271188
254,trat,12.5,102.5,79.79,99,100,1.34,TH,1623271419
255,sergeyevka,53.88,67.4158,50.5,61,6,10.11,KZ,1623271419
256,morant bay,17.8815,-76.4093,85.62,70,100,10.18,JM,1623271224
257,shuiji,27.4214,118.345,73.13,98,100,1.95,CN,1623271420
258,hirado,33.3597,129.5531,71.2,81,100,9.42,JP,1623271420
259,klaksvik,62.2266,-6.589,50.92,99,100,15.77,FO,1623271294
260,chokurdakh,70.6333,147.9167,47.53,48,46,14.88,RU,1623271222
261,umm lajj,25.0213,37.2685,85.23,48,0,6.69,SA,1623271218
262,belyy yar,53.6039,91.3903,51.69,71,75,7.0,RU,1623271420
263,mexico,15.0646,120.7198,78.82,91,100,1.39,PH,1623271421
264,polyarnyy,69.1989,33.4478,59.47,79,100,3.11,RU,1623271421
265,tabou,4.423,-7.3528,78.64,85,96,6.11,CI,1623271421
266,krivosheino,57.3431,83.9261,37.17,85,32,4.83,RU,1623271421
267,meulaboh,4.1363,96.1285,75.7,86,99,4.54,ID,1623271422
268,torbay,47.6666,-52.7314,48.76,73,75,13.8,CA,1623270929
269,miquelon,47.0975,-56.3814,50.14,73,100,7.14,PM,1623271422
270,fairview,40.8126,-73.999,91.35,54,75,3.44,US,1623271422
271,shitanjing,39.2342,106.3439,57.69,63,20,5.79,CN,1623271423
272,pevek,69.7008,170.3133,32.54,92,99,7.2,RU,1623271235
273,kita,13.0349,-9.4895,91.09,36,87,3.71,ML,1623271423
274,ekibastuz,51.6667,75.3667,55.22,48,98,13.91,KZ,1623271423
275,hurghada,27.2574,33.8129,87.84,33,0,10.36,EG,1623271423
276,santo antonio do sudoeste,-26.0736,-53.7253,62.1,97,22,2.01,BR,1623271424
277,aykhal,66.0,111.5,44.85,73,100,21.18,RU,1623271251
278,nishihara,26.1842,127.7558,78.85,91,75,10.4,JP,1623271328
279,pecos,31.4229,-103.4932,105.89,15,1,4.61,US,1623271424
280,zhigansk,66.7697,123.3711,45.5,51,62,2.73,RU,1623271424
281,amahai,-3.3333,128.9167,76.41,89,68,2.62,ID,1623271425
282,sitka,57.0531,-135.33,51.69,76,75,11.5,US,1623271231
283,yulara,-25.2406,130.9889,42.64,52,100,5.75,AU,1623271425
284,nanakuli,21.3906,-158.1547,84.15,54,20,18.61,US,1623271425
285,agirish,61.9247,63.0231,45.59,49,8,1.32,RU,1623271426
286,bowen,-20.0167,148.2333,43.02,42,0,9.17,AU,1623271426
287,keti bandar,24.1447,67.4497,85.77,70,51,17.94,PK,1623271426
288,marrakesh,31.6315,-8.0083,89.67,29,75,8.05,MA,1623271299
289,beringovskiy,63.05,179.3167,40.84,88,98,2.84,RU,1623271306
290,vila franca do campo,37.7167,-25.4333,68.41,85,7,5.61,PT,1623271258
291,rafsanjan,30.4067,55.9939,88.38,12,1,9.46,IR,1623271427
292,kavieng,-2.5744,150.7967,82.63,77,92,12.75,PG,1623271261
293,cap-aux-meules,47.3821,-61.8597,55.45,66,20,16.11,CA,1623271142
294,bilma,18.6853,12.9164,94.91,9,38,6.08,NE,1623271239
295,hofn,64.2539,-15.2082,48.22,100,90,8.05,IS,1623271226
296,talnakh,69.4865,88.3972,28.63,90,26,1.34,RU,1623271427
297,port augusta,-32.5,137.7667,51.94,60,33,21.41,AU,1623271271
298,arlit,18.7369,7.3853,95.67,9,100,6.04,NE,1623271212
299,yerbogachen,61.2767,108.0108,50.29,66,100,4.29,RU,1623271428
300,chumikan,54.7183,135.315,48.13,83,97,3.49,RU,1623271428
301,petropavlovsk-kamchatskiy,53.0452,158.6483,50.59,87,100,3.29,RU,1623271428
302,harper,4.375,-7.7169,78.39,86,100,5.88,LR,1623271429
303,nemuro,43.3236,145.575,49.77,91,7,7.0,JP,1623271429
304,caravelas,-17.7125,-39.2481,73.9,82,4,5.37,BR,1623271268
305,cairns,-16.9167,145.7667,67.95,67,90,11.5,AU,1623271429
306,batticaloa,7.7102,81.6924,82.0,72,100,3.0,LK,1623271430
307,khani,41.9563,42.9566,56.77,95,96,1.9,GE,1623271430
308,roald,62.5833,6.1333,65.16,82,0,3.44,NO,1623271430
309,saint-augustin,51.226,-58.6502,56.28,32,92,10.74,CA,1623271326
310,jumla,29.2747,82.1838,61.48,90,92,1.21,NP,1623271431
311,kieta,-6.2167,155.6333,80.73,81,89,2.77,PG,1623271194
312,ust-koksa,50.2696,85.6108,50.81,93,92,1.52,RU,1623271431
313,two rivers,44.1539,-87.5693,88.07,72,1,4.0,US,1623271431
314,dikson,73.5069,80.5464,31.35,82,100,13.42,RU,1623271212
315,zhuanghe,39.7008,122.9911,63.95,99,100,7.92,CN,1623271432
316,ingham,42.6,-84.3833,89.37,67,40,6.91,US,1623271432
317,black river,18.0264,-77.8487,80.6,71,100,12.3,JM,1623271432
318,northampton,40.8754,-75.2499,87.98,90,89,4.68,US,1623271432
319,tucurui,-3.7661,-49.6725,80.17,72,69,2.59,BR,1623271433
320,iquique,-20.2208,-70.1431,62.64,73,98,8.79,CL,1623271281
321,planadas,3.197,-75.6451,71.42,82,88,1.77,CO,1623271433
322,katherine,-14.4667,132.2667,55.72,50,63,10.47,AU,1623271433
323,magadan,59.5667,150.8,41.41,89,100,4.12,RU,1623271434
324,machaneng,-23.1862,27.4886,59.05,52,35,7.18,BW,1623271434
325,benghazi,32.1167,20.0667,70.86,80,94,9.1,LY,1623271434
326,salinas,36.6777,-121.6555,70.99,51,1,14.97,US,1623271434
327,gallup,35.5281,-108.7426,85.01,4,1,3.0,US,1623271435
328,anito,12.4497,125.2886,77.13,90,100,4.03,PH,1623271435
329,barentu,15.1139,37.5928,81.45,40,100,4.72,ER,1623271435
330,pathum thani,14.0833,100.6,82.02,86,40,9.51,TH,1623271435
331,amapa,1.0,-52.0,75.06,97,100,2.98,BR,1623271436
332,riberalta,-10.9833,-66.1,89.8,62,75,1.79,BO,1623271436
333,dunedin,-45.8742,170.5036,48.83,79,46,6.82,NZ,1623271207
334,panacan,9.2463,118.4082,79.77,81,99,1.45,PH,1623271436
335,imeni babushkina,59.7573,43.1285,49.57,61,49,4.14,RU,1623271437
336,blagoyevo,63.3667,47.9167,50.36,63,25,3.8,RU,1623271437
337,nhulunbuy,-12.2333,136.7667,74.01,64,73,11.5,AU,1623271437
338,solwezi,-12.1688,26.3894,56.55,69,86,3.67,ZM,1623271437
339,ajaccio,42.0,8.9167,66.25,83,0,5.17,FR,1623271438
340,tan an,10.5333,106.4167,78.82,91,99,5.01,VN,1623271438
341,ola,59.5833,151.2833,41.54,88,97,5.64,RU,1623271210
342,clyde river,70.4692,-68.5914,39.43,75,40,23.02,CA,1623271187
343,kruisfontein,-34.0033,24.7314,57.94,65,0,4.97,ZA,1623271248
344,dingle,10.9995,122.6711,76.93,87,100,1.23,PH,1623271181
345,meadow lake,34.8014,-106.5436,93.97,6,67,8.46,US,1623271438
346,shelburne,44.0787,-80.2041,83.05,67,64,9.57,CA,1623271291
347,mount gambier,-37.8333,140.7667,53.51,76,96,18.41,AU,1623271260
348,the valley,18.217,-63.0578,82.54,78,20,17.27,AI,1623270943
349,kuala kedah,6.1,100.3,82.38,100,20,2.98,MY,1623271439
350,olga,43.7444,135.2892,62.74,79,100,3.42,RU,1623271439
351,bengkulu,-3.8004,102.2655,73.8,91,17,3.6,ID,1623271190
352,harrisburg,40.2737,-76.8844,87.94,64,75,1.99,US,1623271387
353,manyana,-23.4,21.7167,56.48,49,1,9.89,BW,1623271440
354,marsabit,2.3284,37.9899,65.7,69,38,19.42,KE,1623271440
355,hargeysa,9.56,44.065,74.28,53,4,22.21,SO,1623271440
356,beisfjord,68.3751,17.5988,58.05,78,72,2.93,NO,1623271440
357,vanimo,-2.6741,141.3028,77.05,88,94,2.42,PG,1623271441
358,mahanoro,-19.9,48.8,68.97,75,85,6.04,MG,1623271441
359,posse,-14.0931,-46.3694,75.67,40,97,4.76,BR,1623271441
360,fort wellington,6.4,-57.6,76.28,92,100,9.71,GY,1623271442
361,geraldton,-28.7667,114.6,61.21,88,40,19.22,AU,1623271235
362,zaysan,47.4667,84.8667,55.53,74,0,4.5,KZ,1623271442
363,ginda,30.6945,78.4932,71.01,53,34,3.27,IN,1623271442
364,banes,20.9625,-75.7186,77.61,68,84,15.41,CU,1623271443
365,benalla,-36.55,145.9833,44.35,95,100,6.11,AU,1623271443
366,mount isa,-20.7333,139.5,37.17,65,62,3.44,AU,1623271443
367,lander,42.833,-108.7307,89.11,10,1,14.97,US,1623271165
368,narsaq,60.9167,-46.05,57.42,69,7,6.76,GL,1623271243
369,grand gaube,-20.0064,57.6608,73.38,75,56,5.99,MU,1623271444
370,okhotsk,59.3833,143.3,52.92,65,19,13.09,RU,1623271444
371,port lincoln,-34.7333,135.8667,54.52,72,100,16.08,AU,1623271295
372,yola,9.2,12.4833,78.42,80,47,9.57,NG,1623271444
373,vardo,70.3705,31.1107,53.35,76,0,4.61,NO,1623271215
374,longyearbyen,78.2186,15.6401,35.44,93,75,5.75,SJ,1623271271
375,olinala,17.8333,-98.85,85.84,39,45,4.45,MX,1623271445
376,havre-saint-pierre,50.2334,-63.5986,55.76,47,1,10.36,CA,1623271289
377,melfi,40.9965,15.6514,64.69,65,14,3.51,IT,1623271445
378,oistins,13.0667,-59.5333,86.09,58,40,21.85,BB,1623271192
379,cayenne,4.9333,-52.3333,78.84,90,0,11.07,GF,1623271180
380,acarau,-2.8856,-40.12,79.02,85,80,10.98,BR,1623271446
381,lufilufi,-13.8745,-171.5986,83.98,75,53,5.12,WS,1623271446
382,fethiye,36.6217,29.1164,69.67,75,19,1.95,TR,1623271446
383,krasnaya gora,52.9995,31.6023,60.71,95,82,7.14,RU,1623271447
384,viseu,40.661,-7.9097,66.85,67,80,0.92,PT,1623271167
385,high level,58.5169,-117.136,64.51,36,75,9.33,CA,1623271447
386,ejea de los caballeros,42.1263,-1.1372,76.86,70,91,11.9,ES,1623271447
387,adrar,20.5022,-10.0711,101.82,8,33,10.6,MR,1623271447
388,sikonge,-5.6333,32.7667,69.04,53,46,7.78,TZ,1623271448
389,kalino,58.2504,57.6085,48.45,84,76,3.98,RU,1623271448
390,agvali,42.5385,46.1197,59.14,90,100,6.33,RU,1623271448
391,cesky krumlov,48.8109,14.3152,62.11,94,95,1.39,CZ,1623271449
392,la ronge,55.1001,-105.2842,61.02,63,40,9.22,CA,1623271306
393,basco,20.4487,121.9702,82.76,81,99,15.12,PH,1623271449
394,dickinson,29.4608,-95.0513,94.17,68,40,3.0,US,1623271201
395,tautira,-17.7333,-149.15,82.42,79,86,12.62,PF,1623271449
396,coihaique,-45.5752,-72.0662,41.11,87,75,8.05,CL,1623271188
397,floriano,-6.7669,-43.0225,89.15,35,85,3.0,BR,1623271450
398,vestmannaeyjar,63.4427,-20.2734,49.19,81,75,16.11,IS,1623271241
399,necochea,-38.5473,-58.7368,59.04,89,100,11.48,AR,1623271450
400,cockburn town,21.4612,-71.1419,80.13,77,0,18.5,TC,1623271243
401,la libertad,-2.2333,-80.9,76.66,78,0,10.07,EC,1623271415
402,raga,8.4596,25.678,73.29,74,73,2.21,SS,1623271451
403,mabaruma,8.2,-59.7833,75.36,97,100,2.62,GY,1623271451
404,ejido,8.5514,-71.2375,72.45,89,100,4.14,VE,1623271451
405,khasan,42.4308,130.6434,57.49,93,100,3.09,RU,1623271451
406,korsakov,46.6328,142.7813,48.04,92,11,6.49,RU,1623271452
407,soligalich,59.0778,42.2864,50.81,60,85,5.39,RU,1623271452
408,bonthe,7.5264,-12.505,80.31,85,75,7.49,SL,1623271452
409,plettenberg bay,-34.0527,23.3716,63.16,57,0,4.29,ZA,1623271306
410,nicoya,10.1483,-85.452,85.55,84,100,4.07,CR,1623271453
411,havoysund,70.9963,24.6622,53.83,77,86,11.27,NO,1623271244
412,sugag,45.7667,23.6333,56.75,88,98,5.97,RO,1623271453
413,mehamn,71.0357,27.8492,53.78,66,0,13.8,NO,1623271453
414,vila velha,-20.3297,-40.2925,75.15,92,75,7.0,BR,1623271229
415,hajiganj,23.2511,90.8592,79.12,90,100,5.55,BD,1623271454
416,polis,35.0367,32.4264,71.29,74,1,6.11,CY,1623271454
417,moba,33.2288,105.0179,53.55,94,100,2.48,CN,1623271454
418,barraute,48.4335,-77.6328,68.27,35,79,9.64,CA,1623271454
419,parana,-31.732,-60.5238,68.58,67,37,4.54,AR,1623271262
420,half moon bay,37.4636,-122.4286,71.42,58,40,11.5,US,1623271248
421,iisalmi,63.5592,27.1907,62.62,58,41,3.51,FI,1623271455
422,la union,-5.4,-80.75,82.72,48,11,14.25,PE,1623271455
423,burewala,30.1667,72.65,99.82,27,0,14.14,PK,1623271455
424,gladstone,-23.85,151.25,46.33,61,0,5.75,AU,1623271456
425,vallenar,-28.5708,-70.7581,71.51,33,13,3.24,CL,1623271456
426,san ramon,37.7799,-121.978,71.82,52,1,8.99,US,1623271189
427,laguna,38.421,-121.4238,76.32,33,1,7.0,US,1623271456
428,awbari,26.5921,12.7805,94.78,11,96,13.47,LY,1623271456
429,pitimbu,-7.4706,-34.8086,79.39,79,16,11.05,BR,1623271224
430,hambantota,6.1241,81.1185,79.95,85,100,16.24,LK,1623271285
431,inirida,3.8653,-67.9239,74.07,98,100,1.99,CO,1623271457
432,kushmurun,52.4503,64.6311,62.49,43,94,13.91,KZ,1623271457
433,lata,40.1629,-8.3327,70.03,87,11,2.82,PT,1623271457
434,okato,-39.2,173.8833,52.68,85,88,7.38,NZ,1623271458
435,kovdor,67.5662,30.4758,60.01,59,96,2.53,RU,1623271458
436,duluth,46.7833,-92.1066,89.01,65,1,4.0,US,1623271295
437,cumanayagua,22.1494,-80.2022,86.41,62,99,10.29,CU,1623271458
438,progreso,21.2833,-89.6667,87.12,73,84,15.64,MX,1623271459
439,constitucion,-35.3333,-72.4167,57.15,76,93,4.9,CL,1623271224
440,bam,29.106,58.357,94.33,12,63,5.28,IR,1623271459
441,ayagoz,47.9714,80.4392,58.3,71,88,6.64,KZ,1623271459
442,semirom,31.4167,51.5667,63.09,14,0,3.18,IR,1623271459
443,sehithwa,-20.4667,22.7167,58.19,46,0,6.8,BW,1623271460
444,emirdag,39.0197,31.15,58.01,77,73,2.55,TR,1623271460
445,oktyabrskiy,54.4815,53.471,57.63,90,36,2.21,RU,1623271460
446,kerema,-7.9631,145.7785,76.26,89,71,3.65,PG,1623271460
447,saint-joseph,-21.3667,55.6167,70.16,78,38,13.04,RE,1623271244
448,noyabrsk,63.1994,75.4507,38.55,68,26,8.61,RU,1623271461
449,great falls,47.5002,-111.3008,70.66,55,75,5.01,US,1623271180
450,lasa,46.6166,10.7002,59.88,96,98,3.62,IT,1623271262
451,kavaratti,10.5669,72.642,83.23,74,70,15.82,IN,1623271461
452,calbuco,-41.768,-73.1273,47.41,79,36,9.22,CL,1623271461
453,mahibadhoo,3.7833,72.9667,82.9,75,57,13.78,MV,1623271462
454,tiarei,-17.5333,-149.3333,82.42,79,98,13.8,PF,1623271241
455,bosaso,11.2842,49.1816,95.04,40,2,15.28,SO,1623271462
456,tuatapere,-46.1333,167.6833,49.82,88,94,4.81,NZ,1623271214
457,bereznik,62.8551,42.7072,53.73,63,93,2.55,RU,1623271462
458,annau,37.8876,58.516,80.1,41,1,6.8,TM,1623271463
459,ocampo,21.65,-101.5,81.28,22,33,13.02,MX,1623271308
460,dwarka,22.2394,68.9678,85.26,75,11,18.14,IN,1623271463
461,bridlington,54.0831,-0.1919,71.78,89,19,8.57,GB,1623271122
462,ciudad bolivar,8.1222,-63.5497,77.94,85,96,11.63,VE,1623271463
463,champerico,14.3,-91.9167,85.77,73,45,13.47,GT,1623271464
464,ballina,-28.8667,153.5667,48.38,66,0,5.75,AU,1623271464
465,biak,-0.9131,122.8766,74.91,80,23,4.63,ID,1623271464
466,carupano,10.6678,-63.2585,80.74,79,80,9.33,VE,1623271464
467,bhinmal,25.0,72.25,85.33,64,0,17.85,IN,1623271465
468,santa lucia,27.9117,-15.5407,71.94,43,0,5.95,ES,1623271466
469,kondinskoye,59.6481,67.41,47.08,61,49,6.67,RU,1623271466
470,catamarca,-28.4696,-65.7852,71.78,62,0,1.99,AR,1623271289
471,bathsheba,13.2167,-59.5167,86.61,58,40,18.7,BB,1623271256
472,nasice,45.4886,18.0878,63.64,85,38,5.86,HR,1623271466
473,scarborough,54.2797,-0.4044,69.37,91,43,7.29,GB,1623271466
474,isangel,-19.55,169.2667,72.18,67,8,6.44,VU,1623271297
475,aguimes,27.9054,-15.4461,76.86,40,0,19.57,ES,1623271467
476,matadi,-5.8167,13.45,77.54,73,62,3.98,CD,1623271467
477,mosquera,4.7059,-74.2302,60.89,82,40,6.91,CO,1623271376
478,boyuibe,-20.4167,-63.2833,75.11,78,100,4.09,BO,1623271467
479,alta floresta,-9.8756,-56.0861,91.22,38,75,4.61,BR,1623271468
480,muzhi,65.3667,64.6667,45.75,69,97,9.13,RU,1623271468
481,tete,-16.1564,33.5867,60.89,82,0,0.0,MZ,1623271468
482,panama city,8.9936,-79.5197,82.6,81,40,5.75,PA,1623271287
483,port hedland,-20.3167,118.5667,71.65,24,90,13.8,AU,1623271469
484,davila,18.4726,120.5763,79.77,82,100,8.99,PH,1623271469
485,bani walid,31.7566,13.9942,67.46,53,54,7.85,LY,1623271469
486,abalak,58.1286,68.5944,43.14,64,9,3.76,RU,1623271469
487,ust-kulom,61.6864,53.6902,48.15,55,45,2.19,RU,1623271259
488,huntington,38.4193,-82.4452,75.45,98,90,1.01,US,1623271470
489,kyren,51.6828,102.1408,53.73,51,67,0.78,RU,1623271470
490,saravena,6.9538,-71.8752,86.38,56,99,1.92,CO,1623271322
491,folldal,62.1325,9.9968,59.16,64,80,3.51,NO,1623271470
492,mildura,-34.2,142.15,51.76,71,90,14.97,AU,1623271330
493,ust-nera,64.5667,143.2,42.94,85,100,5.06,RU,1623271471
494,kirkenaer,60.4564,12.0582,63.45,75,58,4.09,NO,1623271471
495,wardenburg,53.0667,8.2,67.93,88,43,4.21,DE,1623271471
496,sabzevar,36.2126,57.6819,80.47,20,0,18.39,IR,1623271472
497,camopi,3.1655,-52.3158,73.42,98,100,4.23,GF,1623271472
498,machico,32.7,-16.7667,71.71,82,20,12.66,PT,1623271327
499,komsomolskiy,40.4272,71.7189,72.32,73,75,4.61,UZ,1623271217
500,namwala,-15.7504,26.4384,55.47,68,4,4.99,ZM,1623271324
501,bancal,11.5591,123.1551,80.26,80,100,2.1,PH,1623271472
502,sarangani,5.4033,125.4636,82.74,78,100,13.15,PH,1623271473
503,qaqortoq,60.7167,-46.0333,57.7,78,8,5.99,GL,1623271473
504,boca do acre,-8.7522,-67.3978,86.11,62,100,2.21,BR,1623271473
505,loviisa,60.4566,26.2251,61.83,64,18,3.94,FI,1623271473
506,neiafu,-18.65,-173.9833,72.28,88,20,2.3,TO,1623271229
507,esperantina,-3.9017,-42.2336,77.02,90,100,4.29,BR,1623271474
508,salto,-31.3833,-57.9667,64.56,83,75,4.0,UY,1623271321
509,ankang,32.68,109.0172,63.82,97,92,1.05,CN,1623271474
510,bara,10.3744,10.7288,78.67,74,100,9.8,NG,1623271474
511,nyurba,63.2842,118.3319,46.54,64,4,8.19,RU,1623271475
512,ixtapa,20.7,-105.2,87.22,70,1,16.11,MX,1623271263
513,rio grande,-32.035,-52.0986,64.51,91,98,17.83,BR,1623271292
514,gao,16.6362,1.637,98.69,17,79,7.34,ML,1623271475
515,penarroya-pueblonuevo,38.3,-5.2667,78.91,22,28,3.36,ES,1623271475
516,kendari,-3.945,122.4989,73.94,94,68,1.95,ID,1623271476
517,polson,47.6936,-114.1632,57.42,57,100,7.29,US,1623271476
518,vangaindrano,-23.35,47.6,64.33,89,57,3.36,MG,1623271476
519,rancho veloz,22.8806,-80.3917,86.49,59,99,19.57,CU,1623271477
520,marsh harbour,26.5412,-77.0636,79.66,72,17,11.52,BS,1623271243
521,batagay-alyta,67.8006,130.4114,37.72,89,100,6.89,RU,1623271477
522,algiers,36.7525,3.042,69.62,56,0,7.9,DZ,1623271215
523,ajmer,26.45,74.6333,88.84,40,19,20.15,IN,1623271477
524,san luis potosi,22.5,-100.5,86.34,25,5,13.56,MX,1623271361
525,sabalgarh,26.25,77.4,100.13,26,100,5.64,IN,1623271478
526,eagle pass,28.7091,-100.4995,92.25,25,36,15.99,US,1623271478
527,nome,64.5011,-165.4064,46.17,87,90,5.75,US,1623271216
528,itamarandiba,-17.8572,-42.8589,64.53,79,32,5.08,BR,1623271478
529,kozelsk,54.0375,35.7716,59.29,95,96,5.97,RU,1623271479
530,synya,65.3718,58.0387,46.62,70,87,3.38,RU,1623271479
531,petauke,-14.2426,31.3253,56.57,71,38,7.49,ZM,1623271479
532,sisimiut,66.9395,-53.6735,41.74,75,19,14.61,GL,1623271479
533,anadyr,64.75,177.4833,37.9,100,90,5.99,RU,1623271290
534,ancud,-41.8697,-73.8203,48.42,75,4,12.17,CL,1623271191
535,victor harbor,-35.5667,138.6167,55.99,68,100,3.0,AU,1623271480
536,laem sing,12.4816,102.0738,82.06,99,100,13.06,TH,1623271480
537,bubaque,11.2833,-15.8333,80.96,87,100,11.7,GW,1623271480
538,hilton head island,32.2163,-80.7526,86.05,77,1,10.36,US,1623271481
539,price,39.5994,-110.8107,85.71,8,1,13.8,US,1623271300
540,xucheng,20.35,110.1288,75.9,88,99,7.02,CN,1623271481
541,santa maria,-29.6842,-53.8069,67.3,88,20,4.97,BR,1623271250
542,san vicente de canete,-13.0751,-76.3835,66.83,76,63,8.21,PE,1623271481
543,brae,60.3964,-1.353,51.71,97,100,10.33,GB,1623271262
544,altay,47.8667,88.1167,54.37,82,48,1.63,CN,1623271313
545,bud,39.447,-86.1758,81.21,89,96,6.62,US,1623271274
546,alenquer,-1.9417,-54.7383,86.34,66,100,2.51,BR,1623271314
547,praia da vitoria,38.7333,-27.0667,71.85,78,40,13.35,PT,1623271245
548,denpasar,-8.65,115.2167,80.26,83,20,8.75,ID,1623271430
549,empalme,27.9667,-110.8167,107.35,22,37,14.29,MX,1623271258
550,ostrovnoy,68.0531,39.5131,59.95,51,76,18.41,RU,1623271312
551,kumluca,36.3703,30.2869,70.23,80,1,4.07,TR,1623271482
552,high rock,26.6208,-78.2833,84.22,71,45,9.84,BS,1623271482
553,saint-francois,46.4154,3.9054,65.64,90,65,0.0,FR,1623271483
554,vostok,46.4856,135.8833,63.99,71,100,3.06,RU,1623271189
555,harboore,56.6175,8.1807,59.56,86,11,8.7,DK,1623271483
556,manutuke,-38.6833,177.9167,48.97,89,20,5.7,NZ,1623271483
557,beloha,-25.1667,45.05,65.66,77,13,13.82,MG,1623271325
558,taree,-31.9,152.4667,40.57,100,82,0.0,AU,1623271484
559,kendallville,41.4414,-85.265,86.02,55,40,3.44,US,1623271329
560,candolim,15.5181,73.7626,81.01,82,97,10.51,IN,1623271484
