City_ID,City,Lat,Lng,Max Temp,Humidity,Cloudness,Wind speed,Country,Date
0,marawi,7.9986,124.2928,72.95,90,100,2.35,PH,1623294284
1,ushuaia,-54.8,-68.3,37.44,99,100,3.2,AR,1623294003
2,nikolskoye,59.7035,30.7861,59.81,80,78,3.02,RU,1623294285
3,rikitea,-23.1203,-134.9692,72.34,64,100,10.4,PF,1623294285
4,butaritari,3.0707,172.7902,83.75,72,75,15.17,KI,1623294285
5,mataura,-46.1927,168.8643,49.48,95,100,0.83,NZ,1623294285
6,nanortalik,60.1432,-45.2371,35.98,94,71,4.36,GL,1623294286
7,atuona,-9.8,-139.0333,79.7,77,1,15.39,PF,1623294286
8,carnarvon,-24.8667,113.6333,73.31,55,83,12.15,AU,1623294286
9,hilo,19.7297,-155.09,79.29,83,18,4.0,US,1623294287
10,tura,25.5198,90.2201,75.33,95,100,2.62,IN,1623294287
11,wanning,18.8003,110.3967,86.72,71,94,4.56,CN,1623294287
12,khaniotis,39.9991,23.58,67.5,69,37,4.9,GR,1623294288
13,hanzhong,33.0728,107.0303,79.99,60,45,2.3,CN,1623294288
14,saskylakh,71.9167,114.0833,53.76,32,90,14.23,RU,1623294288
15,bluff,-46.6,168.3333,49.8,68,95,2.19,NZ,1623294288
16,panzhihua,26.5851,101.7128,66.76,88,100,2.17,CN,1623294289
17,port macquarie,-31.4333,152.9167,54.9,51,100,11.7,AU,1623294014
18,salalah,17.0151,54.0924,82.08,83,73,5.68,OM,1623294289
19,bengkulu,-3.8004,102.2655,81.72,69,19,1.48,ID,1623294289
20,vaini,-21.2,-175.2,73.24,62,9,15.68,TO,1623294290
21,avarua,-21.2078,-159.775,77.05,78,100,8.05,CK,1623294290
22,norman wells,65.282,-126.8329,73.6,30,5,10.0,CA,1623294290
23,port alfred,-33.5906,26.891,62.01,51,0,7.52,ZA,1623294290
24,kabare,-2.4683,28.8242,58.08,90,96,0.58,CD,1623294291
25,khorixas,-20.3667,14.9667,59.31,35,0,3.96,NA,1623294291
26,busselton,-33.65,115.3333,66.04,86,93,17.4,AU,1623294291
27,cockburn town,21.4612,-71.1419,80.19,76,14,18.28,TC,1623294291
28,samarai,-10.6167,150.6667,81.21,77,46,8.93,PG,1623294292
29,salinopolis,-0.6136,-47.3561,77.41,87,84,6.17,BR,1623294292
30,waverly,42.7392,-84.6208,73.94,90,20,5.75,US,1623294292
31,hithadhoo,-0.6,73.0833,82.98,70,19,7.65,MV,1623294293
32,roma,43.2128,-75.4557,70.38,76,1,6.91,US,1623294293
33,manadhoo,5.7667,73.3833,82.78,72,30,14.0,MV,1623294293
34,tuktoyaktuk,69.4541,-133.0374,53.38,53,100,10.74,CA,1623294293
35,emerald,-23.5333,148.1667,63.34,32,0,9.04,AU,1623294294
36,staraya mayna,54.6,48.95,57.34,87,59,10.36,RU,1623294294
37,jamestown,42.097,-79.2353,68.34,96,40,1.01,US,1623294294
38,lebu,-37.6167,-73.65,51.51,85,100,2.08,CL,1623294294
39,hobart,-42.8794,147.3294,54.01,92,75,3.0,AU,1623294121
40,cape town,-33.9258,18.4232,58.12,75,0,4.56,ZA,1623294261
41,chokurdakh,70.6333,147.9167,53.62,39,33,19.22,RU,1623294295
42,gat,31.61,34.7642,75.4,49,0,2.57,IL,1623294295
43,albany,42.6001,-73.9662,71.31,93,60,4.7,US,1623294295
44,barrow,71.2906,-156.7887,33.8,80,90,13.8,US,1623294007
45,provideniya,64.3833,-173.3,39.31,75,90,8.95,RU,1623294295
46,fortuna,40.5982,-124.1573,60.19,69,40,3.0,US,1623294296
47,new norfolk,-42.7826,147.0587,53.65,83,100,4.0,AU,1623294296
48,luderitz,-26.6481,15.1594,57.4,75,0,4.25,NA,1623294296
49,kapaa,22.0752,-159.319,84.18,69,75,5.01,US,1623294297
50,rusera,25.75,86.0333,92.26,50,80,8.14,IN,1623294297
51,khani,41.9563,42.9566,51.37,86,40,1.43,GE,1623294297
52,aklavik,68.2191,-135.0107,71.92,32,97,7.34,CA,1623294297
53,sloboda,51.1421,40.3021,60.44,87,96,2.01,RU,1623294298
54,ribeira grande,38.5167,-28.7,66.76,94,86,10.0,PT,1623294298
55,obala,4.1667,11.5333,69.26,99,90,2.98,CM,1623294298
56,victoria,22.2855,114.1577,88.03,88,79,1.01,HK,1623294279
57,podporozhye,60.9112,34.1706,56.01,59,4,2.71,RU,1623294299
58,cam ranh,11.9214,109.1591,87.76,62,75,2.66,VN,1623294299
59,hamburg,53.55,10.0,58.78,90,22,1.14,DE,1623294248
60,tsabong,-26.0217,22.401,53.4,63,0,11.48,BW,1623294299
61,hermanus,-34.4187,19.2345,57.9,79,0,3.09,ZA,1623294299
62,dudinka,69.4058,86.1778,34.57,100,100,7.58,RU,1623294300
63,clyde river,70.4692,-68.5914,39.43,70,1,32.21,CA,1623294300
64,boende,-0.2167,20.8667,72.41,83,100,0.51,CD,1623294301
65,pevek,69.7008,170.3133,33.66,86,97,5.64,RU,1623294301
66,qaanaaq,77.484,-69.3632,35.87,63,0,6.04,GL,1623294301
67,mildura,-34.2,142.15,63.07,63,90,19.57,AU,1623294162
68,vao,-22.6667,167.4833,70.7,66,0,10.92,NC,1623294301
69,mehamn,71.0357,27.8492,51.75,71,0,10.36,NO,1623294303
70,alofi,-19.0595,-169.9187,76.89,69,40,10.36,NU,1623294311
71,alice springs,-23.7,133.8833,54.95,38,98,10.0,AU,1623294311
72,praia,14.9215,-23.5087,73.94,83,20,6.91,CV,1623294311
73,severnoye,56.3491,78.3619,51.21,49,5,6.69,RU,1623294312
74,ust-omchug,61.15,149.6333,56.14,37,98,26.4,RU,1623294312
75,wenling,28.3669,121.36,86.92,83,97,7.2,CN,1623294306
76,pucara,-15.9803,-71.4606,33.46,47,59,1.34,PE,1623294312
77,buraydah,26.326,43.975,82.17,12,4,9.55,SA,1623294313
78,balkanabat,39.5108,54.3671,85.17,30,0,9.8,TM,1623294313
79,upernavik,72.7868,-56.1549,34.09,91,100,7.85,GL,1623294313
80,punta arenas,-53.15,-70.9167,41.95,72,90,19.51,CL,1623294154
81,tunyogmatolcs,47.9667,22.4667,54.14,81,16,7.0,HU,1623294314
82,pemberton,50.3164,-122.8027,55.69,71,44,5.1,CA,1623294314
83,lavrentiya,65.5833,-171.0,34.92,98,100,1.81,RU,1623294314
84,castro,-24.7911,-50.0119,55.67,98,87,4.18,BR,1623294067
85,san quintin,30.4833,-115.95,62.04,78,100,20.6,MX,1623294314
86,gainesville,29.6516,-82.3248,80.31,71,1,0.0,US,1623294194
87,usinsk,65.9939,57.5281,51.33,70,100,2.82,RU,1623294315
88,saint-philippe,-21.3585,55.7679,71.15,78,63,14.74,RE,1623294315
89,muros,42.7762,-9.0603,59.85,85,2,8.12,ES,1623294315
90,yellowknife,62.456,-114.3525,62.56,36,13,10.0,CA,1623294316
91,saint george,37.1041,-113.5841,90.07,12,1,18.41,US,1623294036
92,lipari,38.4674,14.954,72.09,78,94,8.81,IT,1623294316
93,sur,22.5667,59.5289,89.08,62,6,6.24,OM,1623294316
94,saint-cyr-sur-loire,47.4,0.6667,64.65,86,0,4.61,FR,1623294316
95,chimbarongo,-34.7,-71.05,53.73,91,87,1.54,CL,1623294317
96,vila velha,-20.3297,-40.2925,71.94,88,5,1.01,BR,1623294123
97,mar del plata,-38.0023,-57.5575,61.09,1,100,3.0,AR,1623294317
98,longyearbyen,78.2186,15.6401,35.44,80,75,10.36,SJ,1623294190
99,newport,51.5877,-2.9984,62.46,93,100,6.62,GB,1623294113
100,dikson,73.5069,80.5464,29.59,85,100,10.83,RU,1623294318
101,katsuura,35.1333,140.3,87.24,67,0,8.61,JP,1623294318
102,port-gentil,-0.7193,8.7815,78.21,83,100,11.1,GA,1623294318
103,aksarka,66.5606,67.7975,48.02,64,82,9.33,RU,1623294318
104,namibe,-15.1961,12.1522,69.96,55,0,10.11,AO,1623294319
105,broken hill,-31.95,141.4333,56.17,57,28,28.72,AU,1623294319
106,namatanai,-3.6667,152.4333,85.23,71,74,9.08,PG,1623294319
107,jurm,36.8648,70.8342,74.01,44,3,1.7,AF,1623294319
108,lugovskoy,56.9585,64.529,57.42,52,100,5.93,RU,1623294320
109,cabedelo,-6.9811,-34.8339,76.08,83,61,9.91,BR,1623294320
110,bethel,41.3712,-73.414,77.58,85,1,4.61,US,1623294320
111,warri,5.5167,5.75,73.44,95,100,0.89,NG,1623294321
112,yumen,40.2833,97.2,80.2,20,86,20.13,CN,1623294321
113,korla,41.7597,86.1469,81.46,24,39,8.75,CN,1623294321
114,puerto ayora,-0.7393,-90.3518,72.55,91,1,5.01,EC,1623294321
115,tasiilaq,65.6145,-37.6368,41.16,82,100,7.87,GL,1623294322
116,ardu,59.0986,25.3541,57.67,66,38,2.48,EE,1623294322
117,santa isabel,-23.3156,-46.2214,65.66,97,97,2.68,BR,1623294322
118,baykit,61.67,96.37,47.59,46,69,11.63,RU,1623294322
119,kaitangata,-46.2817,169.8464,49.93,78,100,4.07,NZ,1623294323
120,souillac,-20.5167,57.5167,73.78,68,75,17.87,MU,1623294069
121,waipawa,-41.4122,175.5153,59.63,81,97,7.76,NZ,1623294323
122,kashan,33.9831,51.4364,83.79,22,0,7.87,IR,1623294323
123,khuzdar,27.7384,66.6434,85.24,45,0,3.76,PK,1623294324
124,severo-kurilsk,50.6789,156.125,47.61,79,41,9.33,RU,1623294324
125,east london,-33.0153,27.9116,61.65,49,2,6.17,ZA,1623294324
126,simnas,54.4,23.65,56.97,96,21,6.49,LT,1623294324
127,sao joao da barra,-21.6403,-41.0511,70.7,85,4,4.72,BR,1623294325
128,arraial do cabo,-22.9661,-42.0278,71.92,84,19,16.26,BR,1623294325
129,leshukonskoye,64.8989,45.7622,57.54,52,90,3.04,RU,1623294325
130,upata,8.0086,-62.3989,72.19,96,100,4.74,VE,1623294325
131,kuching,1.55,110.3333,84.42,79,20,3.44,MY,1623294326
132,bolila,6.3717,125.5714,80.58,83,96,5.01,PH,1623294326
133,san rafael,-34.6177,-68.3301,54.28,47,94,4.25,AR,1623294326
134,cap malheureux,-19.9842,57.6142,73.89,76,47,5.99,MU,1623294327
135,houma,29.5958,-90.7195,80.6,87,1,0.0,US,1623294327
136,sitka,57.0531,-135.33,53.49,71,90,10.36,US,1623294327
137,tommot,58.9564,126.2925,47.95,93,100,8.21,RU,1623294327
138,kavieng,-2.5744,150.7967,85.64,70,77,14.67,PG,1623294328
139,alekseyevsk,57.8406,108.3492,58.71,90,97,7.23,RU,1623294328
140,saint-pierre,-21.3393,55.4781,71.24,80,75,11.5,RE,1623294328
141,cidreira,-30.1811,-50.2056,62.89,97,57,11.65,BR,1623294329
142,college,64.8569,-147.8028,66.47,49,75,6.91,US,1623294329
143,port elizabeth,-33.918,25.5701,60.44,53,0,5.97,ZA,1623294329
144,lazaro cardenas,17.9583,-102.2,83.25,74,19,5.35,MX,1623294329
145,mahebourg,-20.4081,57.7,73.69,68,75,12.66,MU,1623294330
146,georgetown,5.4112,100.3354,75.13,94,40,2.91,MY,1623294089
147,kloulklubed,7.0419,134.2556,79.3,72,85,10.67,PW,1623294330
148,coquimbo,-29.9533,-71.3436,57.49,90,6,3.27,CL,1623294272
149,sibu,2.3,111.8167,81.32,88,93,1.14,MY,1623294330
150,san cristobal,7.7669,-72.225,64.98,87,86,1.68,VE,1623294331
151,sorong,-0.8833,131.25,84.34,70,45,7.31,ID,1623294262
152,fort nelson,58.8053,-122.7002,66.33,33,14,9.53,CA,1623294090
153,bengbu,32.9408,117.3608,81.64,55,100,1.74,CN,1623294331
154,leningradskiy,69.3833,178.4167,36.45,75,100,5.03,RU,1623294331
155,urambo,-5.0667,32.05,62.2,71,74,5.61,TZ,1623294332
156,klaksvik,62.2266,-6.589,49.12,95,100,27.11,FO,1623294332
157,vila franca do campo,37.7167,-25.4333,66.61,93,34,5.66,PT,1623294332
158,hirara,24.8,125.2833,81.39,81,94,16.13,JP,1623294332
159,umm lajj,25.0213,37.2685,81.68,63,0,8.66,SA,1623294322
160,kavaratti,10.5669,72.642,83.46,73,76,15.55,IN,1623294333
161,karratha,-20.7377,116.8463,76.37,44,100,14.45,AU,1623294333
162,meulaboh,4.1363,96.1285,82.0,67,99,1.88,ID,1623294333
163,laguna,38.421,-121.4238,67.1,50,1,8.01,US,1623294333
164,pangoa,-12.1167,-73.0,67.35,99,100,3.11,PE,1623294334
165,hambantota,6.1241,81.1185,82.74,94,20,18.7,LK,1623294334
166,kaeo,-35.1,173.7833,67.32,83,31,7.7,NZ,1623294334
167,santa maria,-29.6842,-53.8069,58.3,100,40,3.8,BR,1623294153
168,haines junction,60.7522,-137.5108,59.09,28,6,9.1,CA,1623294335
169,prince george,53.9166,-122.753,54.14,80,70,4.25,CA,1623294202
170,kruisfontein,-34.0033,24.7314,57.97,51,0,7.61,ZA,1623294335
171,pelym,61.0108,61.9978,59.43,38,33,4.88,RU,1623294335
172,teguldet,57.3064,88.1667,52.39,42,15,5.39,RU,1623294335
173,lata,40.1629,-8.3327,58.91,87,0,2.15,PT,1623294336
174,madang,-5.2246,145.7966,83.89,74,84,4.25,PG,1623294336
175,dwarka,22.2394,68.9678,86.5,72,2,16.53,IN,1623294336
176,gulfport,30.3674,-89.0928,82.45,84,20,3.44,US,1623294097
177,kingman,35.1894,-114.053,85.48,12,1,8.01,US,1623294337
178,alyangula,-13.8483,136.4192,74.34,52,100,15.52,AU,1623294337
179,tiznit,29.5833,-9.5,83.8,22,96,1.83,MA,1623294337
180,gamboma,-1.8764,15.8644,74.8,69,68,1.05,CG,1623294135
181,hayden,47.766,-116.7866,62.53,64,1,4.61,US,1623294338
182,maragogi,-9.0122,-35.2225,74.28,88,52,8.79,BR,1623294338
183,ilhabela,-23.7781,-45.3581,71.22,92,55,9.4,BR,1623294338
184,port augusta,-32.5,137.7667,55.71,55,3,20.49,AU,1623294338
185,faanui,-16.4833,-151.75,80.87,78,51,11.05,PF,1623294339
186,makakilo city,21.3469,-158.0858,82.72,54,1,13.8,US,1623294339
187,isangel,-19.55,169.2667,76.53,60,4,6.11,VU,1623294339
188,umm kaddadah,13.6017,26.6876,84.31,39,79,5.88,SD,1623294339
189,loei,17.4167,101.5,73.44,95,100,1.97,TH,1623294340
190,lompoc,34.6391,-120.4579,61.79,76,1,13.8,US,1623294340
191,tautira,-17.7333,-149.15,82.42,81,96,13.62,PF,1623294340
192,pangnirtung,66.1451,-65.7125,31.21,95,97,2.15,CA,1623294340
193,benjamin constant,-4.3831,-70.0311,72.18,96,78,2.68,BR,1623294341
194,geraldton,-28.7667,114.6,68.41,77,75,17.96,AU,1623294341
195,torbay,47.6666,-52.7314,44.28,86,100,1.01,CA,1623294335
196,praia da vitoria,38.7333,-27.0667,67.75,96,43,10.67,PT,1623294341
197,matara,5.9485,80.5353,82.0,82,31,12.66,LK,1623294342
198,san policarpo,12.1791,125.5072,84.52,67,100,2.24,PH,1623294342
199,abu samrah,35.3029,37.1841,67.46,55,16,7.87,SY,1623294342
200,banjar,-8.19,114.9675,84.06,70,36,2.24,ID,1623294342
201,kulautuva,54.9333,23.6,57.2,92,29,4.68,LT,1623294343
202,taltal,-25.4,-70.4833,61.11,71,1,4.72,CL,1623294343
203,deputatskiy,69.3,139.9,50.99,34,98,5.3,RU,1623294343
204,kodiak,57.79,-152.4072,47.71,87,90,19.57,US,1623294343
205,ponta do sol,32.6667,-17.1,70.43,44,21,3.42,PT,1623294344
206,aksha,50.2814,113.2867,70.74,38,2,4.79,RU,1623294344
207,guerrero negro,27.9769,-114.0611,63.05,81,64,17.16,MX,1623294344
208,pisco,-13.7,-76.2167,62.02,84,92,2.1,PE,1623294323
209,waw,7.7029,27.9953,75.22,64,92,2.53,SS,1623294345
210,chicama,-7.8447,-79.1469,66.51,86,99,6.08,PE,1623294345
211,bodden town,19.2833,-81.25,81.93,64,20,7.67,KY,1623294345
212,pinellas park,27.8428,-82.6995,83.1,72,1,1.01,US,1623294304
213,palmer,42.1584,-72.3287,76.44,86,85,7.27,US,1623294345
214,egvekinot,66.3167,-179.1667,38.52,58,59,2.04,RU,1623294346
215,zambezi,-13.5432,23.1047,50.25,66,10,5.06,ZM,1623294346
216,saint-paul,-21.0096,55.2707,71.69,88,1,1.99,RE,1623294346
217,burayevo,55.8407,55.4083,55.87,88,89,10.92,RU,1623294346
218,gunjur,13.2019,-16.7339,77.07,94,0,6.46,GM,1623294347
219,petropavl,54.8753,69.1628,57.18,47,0,9.8,KZ,1623294347
220,adre,13.4667,22.2,81.9,36,68,5.01,TD,1623294347
221,matiri,-10.75,34.9,52.61,80,0,2.95,TZ,1623294348
222,sorland,67.667,12.6934,51.75,92,95,21.18,NO,1623294348
223,bridlington,54.0831,-0.1919,61.29,95,43,8.1,GB,1623294348
224,san rafael del sur,11.8485,-86.4384,75.24,90,99,7.49,NI,1623294348
225,ancud,-41.8697,-73.8203,44.13,78,36,10.83,CL,1623294349
226,esperance,-33.8667,121.9,60.64,56,40,24.14,AU,1623294349
227,burdur,37.7203,30.2908,56.1,94,75,2.53,TR,1623294349
228,qaqortoq,60.7167,-46.0333,43.3,94,57,6.26,GL,1623294349
229,bay roberts,47.5999,-53.2648,45.05,78,100,3.0,CA,1623294350
230,qazvin,36.2797,50.0049,65.82,63,0,0.0,IR,1623294350
231,fairbanks,64.8378,-147.7164,66.49,50,75,6.91,US,1623294326
232,chengde,40.9725,117.9361,80.51,40,2,2.64,CN,1623294350
233,dunedin,-45.8742,170.5036,50.81,77,100,8.01,NZ,1623294351
234,birin,26.8865,88.0718,69.78,79,98,2.24,NP,1623294351
235,darnah,32.767,22.6367,68.18,84,0,9.93,LY,1623294351
236,bredasdorp,-34.5322,20.0403,52.29,88,0,3.33,ZA,1623294351
237,vestmannaeyjar,63.4427,-20.2734,45.46,90,100,23.42,IS,1623294352
238,dingle,10.9995,122.6711,82.15,76,100,2.91,PH,1623294352
239,talnakh,69.4865,88.3972,34.48,98,100,3.49,RU,1623294352
240,vardo,70.3705,31.1107,52.0,83,99,3.11,NO,1623294352
241,shimoda,34.6667,138.95,84.11,67,0,9.24,JP,1623294353
242,puerto del rosario,28.5004,-13.8627,73.15,60,79,4.61,ES,1623294353
243,arandis,-22.4167,14.9667,47.46,37,0,4.29,NA,1623294353
244,tubuala,9.5167,-79.0333,80.33,85,100,3.83,PA,1623294354
245,beringovskiy,63.05,179.3167,38.44,95,99,4.88,RU,1623294354
246,meadow lake,34.8014,-106.5436,85.48,10,75,8.57,US,1623294292
247,chimbote,-9.0853,-78.5783,64.54,91,65,7.43,PE,1623294354
248,tukrah,32.5341,20.5791,68.14,86,29,7.07,LY,1623294354
249,neiafu,-18.65,-173.9833,75.69,68,10,16.24,TO,1623294073
250,morgan city,29.6994,-91.2068,80.01,94,1,5.26,US,1623294355
251,san miguel de cauri,-10.1,-76.5833,44.24,95,96,1.99,PE,1623294355
252,yonago,35.4333,133.3333,82.69,48,53,5.48,JP,1623294355
253,mananara,-16.1667,49.7667,66.72,92,49,6.78,MG,1623294356
254,songea,-10.6833,35.65,54.09,82,2,2.73,TZ,1623294136
255,tooele,40.5308,-112.2983,81.25,19,1,20.47,US,1623294356
256,cabo san lucas,22.8909,-109.9124,90.81,33,1,11.5,MX,1623294356
257,kedrovka,55.5333,86.05,52.68,41,1,7.34,RU,1623294356
258,lac du bonnet,50.2536,-96.0612,67.59,97,66,10.13,CA,1623294357
259,mlonggo,-6.5333,110.7,87.69,63,39,1.3,ID,1623294357
260,agua dulce,18.1333,-94.1333,81.3,85,90,9.98,MX,1623294357
261,bluffton,32.2371,-80.8604,79.95,89,1,7.56,US,1623294358
262,kankon,15.0167,74.0167,80.17,83,99,6.42,IN,1623294358
263,tamala,52.541,43.2515,59.22,84,50,5.1,RU,1623294358
264,boundiali,9.5217,-6.4869,71.56,94,99,3.36,CI,1623294358
265,jardim,-21.4803,-56.1381,65.8,97,71,1.1,BR,1623294359
266,port blair,11.6667,92.75,83.75,78,97,18.57,IN,1623294359
267,choya,52.0108,86.5467,53.89,89,98,2.84,RU,1623294359
268,olafsvik,64.8945,-23.7142,44.74,93,100,11.25,IS,1623294359
269,levelland,33.5873,-102.378,87.19,15,4,5.93,US,1623294360
270,ishigaki,24.3448,124.1572,82.53,80,100,14.76,JP,1623294360
271,bac lieu,9.285,105.7244,86.94,63,100,11.79,VN,1623294360
272,huarmey,-10.0681,-78.1522,65.57,87,47,10.56,PE,1623294360
273,yanliang,34.6592,109.2292,86.58,36,0,5.86,CN,1623294361
274,berlevag,70.8578,29.0864,51.8,74,92,1.14,NO,1623294361
275,arman,59.7,150.1667,51.76,69,9,8.63,RU,1623294361
276,broome,42.2506,-75.833,72.66,93,52,1.99,US,1623294362
277,aasiaat,68.7098,-52.8699,35.56,90,85,10.85,GL,1623294313
278,ulaangom,49.9811,92.0667,67.66,36,100,10.29,MN,1623294362
279,cherskiy,68.75,161.3,43.84,63,100,11.45,RU,1623294362
280,twin falls,42.3505,-114.6445,69.69,28,1,9.91,US,1623294363
281,khatanga,71.9667,102.5,55.26,35,95,10.02,RU,1623294363
282,dawson creek,55.7666,-120.2362,56.84,62,20,9.22,CA,1623294363
283,mount gambier,-37.8333,140.7667,57.11,82,98,18.41,AU,1623294363
284,the valley,18.217,-63.0578,81.1,81,100,17.87,AI,1623294254
285,champerico,14.3,-91.9167,80.35,81,98,4.18,GT,1623294364
286,taoudenni,22.6783,-3.9836,96.94,13,10,13.51,ML,1623294364
287,bilma,18.6853,12.9164,89.13,11,95,4.12,NE,1623294364
288,mariental,-24.6333,17.9667,51.3,39,0,7.23,NA,1623294364
289,codrington,-38.2667,141.9667,58.98,76,38,20.56,AU,1623294365
290,axim,4.8699,-2.2405,78.6,85,100,6.17,GH,1623294365
291,ostrovnoy,68.0531,39.5131,59.63,45,91,20.8,RU,1623294365
292,nuuk,64.1835,-51.7216,36.21,100,90,5.75,GL,1623294366
293,batticaloa,7.7102,81.6924,84.15,63,90,2.77,LK,1623294366
294,hyeres,43.1167,6.1167,66.33,84,0,4.61,FR,1623294366
295,sapa,5.1544,120.3241,84.9,66,98,3.38,PH,1623294366
296,thompson,55.7435,-97.8558,62.13,61,100,8.39,CA,1623294367
297,saldanha,-33.0117,17.9442,59.16,77,0,8.68,ZA,1623294367
298,chiredzi,-21.05,31.6667,55.2,75,0,1.9,ZW,1623294367
299,vitim,59.4511,112.5578,75.94,27,22,5.37,RU,1623294367
300,rawson,-43.3002,-65.1023,51.26,53,92,22.55,AR,1623294368
301,viseu,40.661,-7.9097,55.72,67,0,4.81,PT,1623294368
302,saquena,-4.6667,-73.5167,73.67,91,95,1.03,PE,1623294368
303,mnogovershinnyy,53.9353,139.9242,76.48,53,100,11.23,RU,1623294368
304,tymovskoye,50.8456,142.655,83.28,39,100,9.6,RU,1623294369
305,keningau,5.3378,116.1602,86.45,52,99,1.25,MY,1623294369
306,cayenne,4.9333,-52.3333,80.1,85,20,5.01,GF,1623294177
307,shache,38.4167,77.2406,83.79,20,0,9.19,CN,1623294369
308,aksu,41.1231,80.2644,78.89,29,79,6.58,CN,1623294370
309,walvis bay,-22.9575,14.5053,54.09,79,0,5.99,NA,1623294370
310,rabat,33.9911,-6.8401,67.15,100,32,1.72,MA,1623294370
311,jiangyou,31.7667,104.7167,79.97,58,35,5.12,CN,1623294370
312,iskilip,40.7353,34.4739,55.49,86,88,4.56,TR,1623294371
313,santa rosa,14.3122,121.1114,90.09,71,85,0.65,PH,1623294371
314,usilampatti,9.9667,77.8,85.15,56,100,6.06,IN,1623294371
315,airai,-8.9266,125.4092,71.56,59,90,2.53,TL,1623294371
316,banamba,13.55,-7.45,84.15,47,98,5.44,ML,1623294372
317,tigil,57.8,158.6667,63.64,50,94,27.22,RU,1623294372
318,iqaluit,63.7506,-68.5145,34.7,81,3,11.99,CA,1623294372
319,santiago de cao,-7.9589,-79.2392,65.52,89,100,11.99,PE,1623294372
320,batemans bay,-35.7167,150.1833,54.91,81,95,3.91,AU,1623294373
321,diffun,16.6,121.5,85.51,68,96,3.13,PH,1623294373
322,cukai,4.25,103.4167,85.55,64,100,2.46,MY,1623294373
323,husavik,66.0449,-17.3389,49.75,83,100,7.45,IS,1623294374
324,pozo colorado,-23.4923,-58.7972,67.73,99,91,3.4,PY,1623294374
325,staryy nadym,65.6118,72.6842,51.91,48,95,8.88,RU,1623294374
326,novosemeykino,53.3833,50.3667,65.35,72,40,1.14,RU,1623294374
327,lokeren,51.1154,3.963,59.41,68,51,5.37,BE,1623294265
328,nobeoka,32.5833,131.6667,83.77,79,100,8.5,JP,1623294375
329,bambous virieux,-20.3428,57.7575,73.65,68,75,18.75,MU,1623294375
330,emirdag,39.0197,31.15,55.33,85,58,2.59,TR,1623294375
331,tiksi,71.6872,128.8694,39.29,67,12,9.73,RU,1623294375
332,hamilton,39.1834,-84.5333,73.36,95,75,1.01,US,1623294376
333,burnie,-41.0667,145.9167,60.93,69,34,21.27,AU,1623294376
334,mastic beach,40.7668,-72.8521,79.0,89,40,0.0,US,1623294376
335,catuday,16.2923,119.8062,80.87,77,100,16.33,PH,1623294377
336,pueblo nuevo solistahuacan,17.1,-92.8833,66.94,95,100,2.24,MX,1623294377
337,lanciano,42.2167,14.3882,66.22,59,75,7.81,IT,1623294377
338,porosozero,62.7191,32.727,55.09,51,2,2.19,RU,1623294378
339,nurota,40.5614,65.6886,77.09,21,0,5.14,UZ,1623294378
340,ust-nera,64.5667,143.2,49.08,70,100,6.38,RU,1623294378
341,goshogawara,40.8044,140.4414,75.92,63,13,6.26,JP,1623294378
342,concepcion del uruguay,-32.4825,-58.2372,56.86,97,100,0.94,AR,1623294379
343,kirakira,-10.4544,161.9205,84.42,71,68,9.42,SB,1623294379
344,moron,-34.6534,-58.6198,60.96,98,100,3.24,AR,1623294379
345,manado,1.487,124.8455,92.17,49,20,3.65,ID,1623294110
346,wanaka,-44.7,169.15,52.81,69,96,0.85,NZ,1623294379
347,bulgan,48.8125,103.5347,68.52,31,100,7.7,MN,1623294380
348,sharjah,25.3573,55.4033,89.26,67,1,6.08,AE,1623294154
349,pangody,65.85,74.4859,50.65,49,91,10.83,RU,1623294380
350,havelock,34.8791,-76.9013,78.94,92,1,5.01,US,1623294380
351,pasighat,28.0667,95.3333,85.93,65,100,2.19,IN,1623294381
352,sao filipe,14.8961,-24.4956,74.07,80,30,6.51,CV,1623294381
353,letka,59.6011,49.4232,57.02,50,2,3.38,RU,1623294381
354,labuhan,-6.8844,112.2051,85.19,66,41,6.24,ID,1623294381
355,verkhnyaya inta,65.9811,60.3094,48.27,73,100,4.63,RU,1623294382
356,valparaiso,-33.0393,-71.6273,57.47,82,42,8.52,CL,1623294144
357,gigmoto,13.7796,124.39,81.84,79,100,5.23,PH,1623294382
358,sisimiut,66.9395,-53.6735,36.63,87,58,11.43,GL,1623294382
359,chuy,-33.6971,-53.4616,60.85,96,100,11.25,UY,1623294382
360,shingu,33.7333,135.9833,76.37,62,0,8.28,JP,1623294383
361,chake chake,-5.2459,39.7666,73.4,85,64,9.01,TZ,1623294136
362,half moon bay,37.4636,-122.4286,61.41,71,20,9.22,US,1623294383
363,rio gallegos,-51.6226,-69.2181,40.55,80,88,22.19,AR,1623294211
364,northam,51.0333,-4.2167,60.39,96,100,7.2,GB,1623294383
365,ponta delgada,37.7333,-25.6667,66.92,94,75,8.05,PT,1623294275
366,ondjiva,-17.0667,15.7333,52.83,51,0,6.44,AO,1623294384
367,ahuimanu,21.4447,-157.8378,83.91,59,40,13.8,US,1623294384
368,althofen,46.8818,14.4676,54.75,92,99,3.13,AT,1623294384
369,mount isa,-20.7333,139.5,64.17,22,8,12.66,AU,1623294385
370,islamkot,24.6997,70.177,90.03,53,0,19.01,PK,1623294385
371,kruglolesskoye,44.6589,42.8142,57.29,93,99,2.51,RU,1623294385
372,ahipara,-35.1667,173.1667,65.25,77,47,6.44,NZ,1623294385
373,lake charles,30.2131,-93.2044,80.98,89,40,6.91,US,1623294386
374,pauini,-7.7136,-66.9764,77.94,76,100,1.3,BR,1623294386
375,herre,59.1,9.5667,61.77,99,100,3.62,NO,1623294386
376,andenes,69.3143,16.1194,55.08,82,90,14.97,NO,1623294387
377,camacha,33.0833,-16.3333,66.96,82,40,8.05,PT,1623294269
378,bad oldesloe,53.8117,10.3742,57.36,90,21,4.05,DE,1623294387
379,xuanzhou,30.9525,118.7553,74.07,97,100,3.94,CN,1623294387
380,santa isabel do rio negro,-0.4139,-65.0192,72.77,99,100,2.15,BR,1623294387
381,fez,34.0372,-4.9998,70.05,64,0,3.51,MA,1623294388
382,uray,60.1247,64.7758,58.64,48,15,4.7,RU,1623294388
383,ketchikan,55.3422,-131.6461,54.07,76,90,10.36,US,1623294388
384,laredo,27.5064,-99.5075,89.89,58,1,12.66,US,1623294388
385,banff,51.1762,-115.5698,52.92,69,25,4.99,CA,1623294389
386,moquegua,-17.1956,-70.9353,59.4,55,33,0.76,PE,1623294389
387,sunland park,31.7965,-106.58,94.62,14,1,1.01,US,1623294389
388,mamlyutka,54.9375,68.5394,57.22,61,100,9.1,KZ,1623294390
389,zyryanovsk,49.7386,84.2719,63.73,73,76,1.41,KZ,1623294390
390,manaure,11.7751,-72.4445,77.88,84,100,3.85,CO,1623294390
391,nchelenge,-9.3451,28.734,60.58,74,8,8.7,ZM,1623294390
392,sinnamary,5.3833,-52.95,77.92,85,100,9.46,GF,1623294391
393,kidal,18.4411,1.4078,90.73,16,2,5.46,ML,1623294391
394,jasper,37.2001,-94.3502,80.02,79,1,5.48,US,1623294391
395,puerto madryn,-42.7692,-65.0385,52.41,49,95,21.41,AR,1623294392
396,sawtell,-30.3833,153.1,59.02,47,77,12.66,AU,1623294392
397,kununurra,-15.7667,128.7333,76.98,22,73,9.22,AU,1623294392
398,san antonio,29.4241,-98.4936,84.09,77,1,1.01,US,1623294357
399,manjacaze,-24.7117,33.8828,59.43,94,11,1.36,MZ,1623294392
400,ilulissat,69.2167,-51.1,35.62,93,90,6.91,GL,1623294393
401,petropavlovsk-kamchatskiy,53.0452,158.6483,72.19,46,81,5.97,RU,1623294230
402,qinhuangdao,39.9317,119.5883,70.38,75,100,5.95,CN,1623294393
403,along,28.1667,94.7667,83.64,59,100,0.58,IN,1623294393
404,tacoronte,28.4769,-16.4102,76.14,44,0,4.61,ES,1623294394
405,mahibadhoo,3.7833,72.9667,83.28,72,21,13.96,MV,1623294394
406,yerbogachen,61.2767,108.0108,56.89,48,98,12.03,RU,1623294394
407,horqueta,-23.3428,-57.0597,66.97,99,94,3.47,PY,1623294394
408,salvador,13.8333,-88.9167,70.2,95,100,1.97,SV,1623294354
409,pineville,31.3224,-92.4343,80.89,80,1,7.31,US,1623294235
410,noumea,-22.2763,166.4572,78.78,99,0,6.85,NC,1623294395
411,tondano,1.3038,124.9112,86.09,64,49,3.18,ID,1623294395
412,chardara,41.2547,67.9692,80.73,26,0,5.19,KZ,1623294395
413,jibert,46.0,25.0667,51.06,95,50,1.3,RO,1623294396
414,yar-sale,66.8333,70.8333,45.54,60,99,11.61,RU,1623294396
415,fomboni,-12.28,43.7425,79.52,60,0,19.24,KM,1623294396
416,guadalupe y calvo,26.1,-106.9667,61.45,58,73,3.8,MX,1623294396
417,trairi,-3.2778,-39.2689,76.78,90,44,8.19,BR,1623294317
418,buala,-8.145,159.5921,83.5,75,84,9.62,SB,1623294397
419,el rosario,24.2556,-107.1828,86.2,66,22,2.48,MX,1623294397
420,sabang,5.8933,95.3214,83.14,71,100,14.67,ID,1623294397
421,batagay-alyta,67.8006,130.4114,44.96,64,96,11.54,RU,1623294398
422,vaitape,-16.5167,-151.75,80.87,78,52,11.1,PF,1623294398
423,tyrma,50.0833,132.1667,81.39,35,90,11.39,RU,1623294398
424,carutapera,-1.195,-46.02,75.29,93,98,4.65,BR,1623294399
425,ofaqim,31.3141,34.6203,71.74,60,0,5.08,IL,1623294399
426,polunochnoye,60.8697,60.4153,56.95,37,31,4.76,RU,1623294399
427,san jose,37.3394,-121.895,61.36,56,40,3.0,US,1623294381
428,lagoa,39.05,-27.9833,65.46,95,100,13.27,PT,1623294399
429,baie-comeau,49.2168,-68.1489,51.12,47,6,9.69,CA,1623294309
430,mana,5.6592,-53.7767,77.11,87,85,8.5,GF,1623294400
431,mareeba,-17.0,145.4333,74.44,63,1,5.35,AU,1623294400
432,progreso,21.2833,-89.6667,77.11,76,71,12.08,MX,1623294400
433,dalvik,65.9702,-18.5286,49.35,88,100,2.13,IS,1623294401
434,kahului,20.8947,-156.47,82.42,69,40,26.46,US,1623294401
435,constitucion,-35.3333,-72.4167,53.91,81,100,3.4,CL,1623294401
436,chumikan,54.7183,135.315,44.91,92,100,4.07,RU,1623294402
437,cartagena del chaira,1.3349,-74.8429,69.28,99,89,2.51,CO,1623294402
438,kempele,64.9131,25.5034,55.42,88,0,3.44,FI,1623294402
439,luwuk,-0.9516,122.7875,86.41,64,46,4.74,ID,1623294402
440,neuquen,-38.9516,-68.0591,52.56,49,94,20.83,AR,1623294403
441,blagoyevo,63.3667,47.9167,59.86,50,47,1.97,RU,1623294403
442,ouallam,14.3188,2.0866,86.43,46,96,11.16,NE,1623294403
443,iwanai,42.9744,140.5089,77.05,37,25,4.52,JP,1623294403
444,pangkalanbuun,-2.6833,111.6167,90.12,54,36,2.77,ID,1623294404
445,san patricio,28.017,-97.5169,82.85,89,6,11.1,US,1623294404
446,inirida,3.8653,-67.9239,72.18,98,93,1.05,CO,1623294404
447,mitsamiouli,-11.3847,43.2844,76.89,68,0,9.73,KM,1623294404
448,turan,16.0678,108.2208,94.98,49,40,2.3,VN,1623294405
449,asau,46.4333,26.4,55.4,91,13,4.38,RO,1623294405
450,pacific grove,36.6177,-121.9166,61.2,77,20,4.0,US,1623294405
451,raga,8.4596,25.678,71.44,79,25,2.21,SS,1623294406
452,ibra,22.6906,58.5334,85.91,57,2,1.12,OM,1623294406
453,batyrevo,55.0675,47.6111,55.83,87,62,11.14,RU,1623294406
454,kon tum,14.35,108.0,77.86,80,94,2.84,VN,1623294406
455,naze,28.3667,129.4833,76.35,79,88,15.88,JP,1623294407
456,khasan,42.4308,130.6434,64.06,78,100,12.12,RU,1623294407
457,aswan,24.0934,32.907,84.0,17,0,9.1,EG,1623294407
458,shirvan,39.9509,48.8994,70.41,62,0,0.31,AZ,1623294407
459,kathu,7.9178,98.3332,85.82,78,100,11.97,TH,1623294408
460,yangjiang,21.85,111.9667,88.95,70,88,8.52,CN,1623294408
461,narsaq,60.9167,-46.05,43.02,89,72,4.45,GL,1623294408
462,beloha,-25.1667,45.05,63.18,84,1,9.75,MG,1623294409
463,bonavista,48.6499,-53.1147,41.34,83,100,10.87,CA,1623294409
464,saquarema,-22.92,-42.5103,68.9,92,17,9.71,BR,1623294323
465,radchenko,56.6803,36.3718,55.62,85,99,7.61,RU,1623294409
466,tezu,27.9167,96.1667,86.85,60,100,2.95,IN,1623294409
467,lerwick,60.1545,-1.1494,51.8,97,100,5.88,GB,1623294410
468,inhambane,-23.865,35.3833,64.17,79,0,3.51,MZ,1623294410
469,flin flon,54.7682,-101.865,60.22,68,39,4.65,CA,1623294410
470,port lincoln,-34.7333,135.8667,57.11,62,98,13.65,AU,1623294410
471,havoysund,70.9963,24.6622,54.48,74,100,10.29,NO,1623294411
472,puerto quijarro,-17.7833,-57.7667,76.57,57,14,0.85,BO,1623294411
473,satellite beach,28.1761,-80.5901,81.09,82,1,3.0,US,1623294283
474,nueva gorgona,8.55,-79.8667,82.22,99,100,3.53,PA,1623294411
475,inzer,54.2167,57.5556,59.23,80,96,2.19,RU,1623294412
476,jalu,29.0331,21.5482,72.77,48,80,9.71,LY,1623294412
477,belmonte,-15.8631,-38.8828,72.1,85,17,8.05,BR,1623294412
478,svetlyy,54.675,20.1347,53.65,91,0,5.41,RU,1623294412
479,tiruvannamalai,12.2167,79.0667,87.24,44,100,11.54,IN,1623294413
480,ugoofaaru,5.6667,73.0,82.67,71,29,13.06,MV,1623294413
481,jibuti,11.5,42.5,81.82,40,5,1.92,DJ,1623294413
482,caruray,10.3094,119.0128,87.91,66,80,6.24,PH,1623294413
483,novi troyany,45.9427,28.8563,59.76,86,52,10.4,UA,1623294414
484,poum,-20.2333,164.0167,74.86,69,34,14.12,NC,1623294414
485,sabha,27.0377,14.4283,76.71,30,36,22.82,LY,1623294414
486,arlit,18.7369,7.3853,88.27,12,92,6.89,NE,1623294414
487,wamba,8.9333,8.6,73.09,91,100,2.08,NG,1623294415
488,tabou,4.423,-7.3528,77.88,84,100,3.89,CI,1623294415
489,develi,38.3906,35.4922,51.15,74,8,1.92,TR,1623294415
490,mandalgovi,45.7625,106.2708,77.41,14,99,19.93,MN,1623294416
491,evensk,61.95,159.2333,45.01,88,94,4.9,RU,1623294416
492,senador jose porfirio,-2.5908,-51.9542,74.28,94,100,3.49,BR,1623294416
493,ca mau,9.1769,105.15,84.72,71,100,9.35,VN,1623294163
494,anloga,5.7947,0.8973,81.28,77,100,7.16,GH,1623294416
495,bathsheba,13.2167,-59.5167,81.21,69,20,18.66,BB,1623294417
496,mahon,39.8885,4.2658,66.76,68,0,6.91,ES,1623294417
497,ballesteros,18.4126,121.5152,87.01,65,100,5.84,PH,1623294417
498,makokou,0.5738,12.8642,69.58,98,78,1.52,GA,1623294418
499,sept-iles,50.2001,-66.3821,49.05,58,77,3.0,CA,1623294418
500,male,4.1748,73.5089,83.01,72,39,13.91,MV,1623294418
501,richards bay,-28.783,32.0377,60.71,93,7,2.86,ZA,1623294418
502,nerchinskiy zavod,51.3088,119.61,61.03,70,61,8.88,RU,1623294419
503,avinurme,58.9822,26.8642,60.06,74,83,2.91,EE,1623294419
504,auki,-8.7676,160.7034,85.19,65,38,3.31,SB,1623294419
505,tolaga bay,-38.3667,178.3,62.35,79,21,10.38,NZ,1623294419
506,tual,-5.6667,132.75,81.57,77,100,16.26,ID,1623294420
507,luganville,-15.5333,167.1667,80.4,68,58,9.64,VU,1623294420
508,bambanglipuro,-7.95,110.2833,67.6,72,22,7.36,ID,1623294420
509,hovd,48.0056,91.6419,65.48,39,33,4.99,MN,1623294421
510,aguada de pasajeros,22.385,-80.8508,77.14,86,92,8.21,CU,1623294421
511,sulina,45.1559,29.6536,62.13,89,13,9.46,RO,1623294421
512,sambava,-14.2667,50.1667,67.68,79,1,9.64,MG,1623294421
513,sebeta,8.9167,38.6167,59.04,76,4,0.92,ET,1623294422
514,kristiinankaupunki,62.2743,21.376,55.27,70,67,3.44,FI,1623294422
515,tuatapere,-46.1333,167.6833,49.82,82,100,0.89,NZ,1623294422
516,nome,64.5011,-165.4064,43.16,93,90,9.22,US,1623294423
517,kalach-na-donu,48.691,43.5264,63.72,83,30,6.98,RU,1623294423
518,rancho palos verdes,33.7445,-118.387,69.51,71,20,5.01,US,1623294423
519,moranbah,-22.0016,148.0466,63.61,22,0,6.13,AU,1623294424
520,cabra,37.4725,-4.4421,63.7,33,4,2.89,ES,1623294424
521,toba,34.4833,136.85,85.32,78,0,8.99,JP,1623294424
522,mondovi,44.396,7.8176,66.72,78,18,3.91,IT,1623294424
523,askarovo,53.3372,58.5089,58.15,63,40,3.58,RU,1623294425
524,stephenville,32.2207,-98.2023,81.95,78,40,4.61,US,1623294425
525,daloa,6.8774,-6.4502,71.71,99,100,3.65,CI,1623294425
526,karasjok,69.4719,25.5112,53.71,57,87,2.48,NO,1623294426
527,katangli,51.7102,143.2326,74.75,50,77,9.75,RU,1623294426
528,timra,62.487,17.3257,55.08,88,75,3.44,SE,1623294426
529,boa vista,2.8197,-60.6733,76.98,88,75,3.44,BR,1623294426
530,mirnyy,62.5353,113.9611,68.2,31,22,13.67,RU,1623294427
531,normandin,48.8333,-72.5321,50.88,41,100,6.89,CA,1623294427
532,grand gaube,-20.0064,57.6608,73.8,76,38,5.99,MU,1623294427
533,seoni,22.0833,79.5333,82.74,63,36,6.96,IN,1623294428
534,quatre cocos,-20.2078,57.7625,73.51,77,49,19.13,MU,1623294428
535,ixtapa,20.7,-105.2,83.23,78,40,0.0,MX,1623294383
536,moussoro,13.6408,16.4901,90.68,33,70,7.31,TD,1623294428
537,nalut,30.3333,10.85,70.81,41,0,10.36,LY,1623294137
538,pochutla,15.7432,-96.4661,77.11,85,100,4.0,MX,1623294429
539,witbank,-25.8713,29.2332,43.97,71,37,4.29,ZA,1623294429
540,hadejia,12.4498,10.0444,85.66,49,100,14.25,NG,1623294429
541,abha,18.2164,42.5053,66.45,37,0,6.98,SA,1623294429
542,rye brook,41.0193,-73.6835,78.93,81,1,1.01,US,1623294430
